{"car":{"boost":false,"boost_left":69,"dodge_dir":[2.3512056226468525e-38,2.3510604481259484e-38],"dodge_timer":-1.0,"double_jumped":false,"handbrake":false,"jump":true,"jump_timer":-1.0,"jumped":true,"o":[-0.979215145111084,0.20260705053806305,-0.009388395585119724,-0.2025977373123169,-0.9792601466178894,-0.001942440983839333,-0.009587232954800129,-0.0,0.9999540448188782],"on_ground":false,"pitch":0.0,"roll":0.0,"steer":0.0,"supersonic":false,"throttle":0.0,"time":926.6825561523438,"v":[-2.060999870300293,-0.38099998235702515,444.3476257324219],"w":[-0.0002099999983329326,0.0,0.0],"x":[1355.03662109375,1892.969970703125,91.51813507080078],"yaw":0.0},"ball":{"v":[0.0,0.0,0.0],"w":[0.0,0.0,0.0],"x":[0.0,0.0,92.73999786376953]}}
{"car":{"boost":false,"boost_left":69,"dodge_dir":[2.3512056226468525e-38,2.3510604481259484e-38],"dodge_timer":-1.0,"double_jumped":false,"handbrake":false,"jump":true,"jump_timer":-1.0,"jumped":true,"o":[-0.979215145111084,0.20260705053806305,-0.009388395585119724,-0.2025977373123169,-0.9792601466178894,-0.001942440983839333,-0.009587232954800129,-0.0,0.9999540448188782],"on_ground":false,"pitch":0.0,"roll":0.0,"steer":0.0,"supersonic":false,"throttle":0.0,"time":926.69091796875,"v":[-2.060999870300293,-0.38099998235702515,438.9272766113281],"w":[-0.0002099999983329326,0.0,0.0],"x":[1355.0167236328125,1892.969970703125,95.18023681640625],"yaw":0.0},"ball":{"v":[0.0,0.0,0.0],"w":[0.0,0.0,0.0],"x":[0.0,0.0,92.73999786376953]}}
{"car":{"boost":false,"boost_left":69,"dodge_dir":[2.3512056226468525e-38,2.3510604481259484e-38],"dodge_timer":-1.0,"double_jumped":false,"handbrake":false,"jump":true,"jump_timer":-1.0,"jumped":true,"o":[-0.979215145111084,0.20260705053806305,-0.009388395585119724,-0.2025977373123169,-0.9792601466178894,-0.001942440983839333,-0.009587232954800129,-0.0,0.9999540448188782],"on_ground":false,"pitch":0.0,"roll":0.0,"steer":0.0,"supersonic":false,"throttle":0.0,"time":926.6992797851563,"v":[-2.060999870300293,-0.38099998235702515,433.4751281738281],"w":[-0.0002099999983329326,0.0,0.0],"x":[1354.99658203125,1892.969970703125,98.8132553100586],"yaw":0.0},"ball":{"v":[0.0,0.0,0.0],"w":[0.0,0.0,0.0],"x":[0.0,0.0,92.73999786376953]}}
{"car":{"boost":false,"boost_left":69,"dodge_dir":[2.3512056226468525e-38,2.3510604481259484e-38],"dodge_timer":-1.0,"double_jumped":false,"handbrake":false,"jump":true,"jump_timer":-1.0,"jumped":true,"o":[-0.979215145111084,0.20260705053806305,-0.009388395585119724,-0.2025977373123169,-0.9792601466178894,-0.001942440983839333,-0.009587232954800129,-0.0,0.9999540448188782],"on_ground":false,"pitch":0.0,"roll":0.0,"steer":0.0,"supersonic":false,"throttle":0.0,"time":926.716064453125,"v":[-2.060999870300293,-0.38099998235702515,422.58734130859375],"w":[-0.0002099999983329326,0.0,0.0],"x":[1354.9564208984375,1892.969970703125,105.92872619628906],"yaw":0.0},"ball":{"v":[0.0,0.0,0.0],"w":[0.0,0.0,0.0],"x":[0.0,0.0,92.73999786376953]}}
{"car":{"boost":false,"boost_left":69,"dodge_dir":[2.3512056226468525e-38,2.3510604481259484e-38],"dodge_timer":-1.0,"double_jumped":false,"handbrake":false,"jump":true,"jump_timer":-1.0,"jumped":true,"o":[-0.979215145111084,0.20260705053806305,-0.009388395585119724,-0.2025977373123169,-0.9792601466178894,-0.001942440983839333,-0.009587232954800129,-0.0,0.9999540448188782],"on_ground":false,"pitch":0.0,"roll":0.0,"steer":0.0,"supersonic":false,"throttle":0.0,"time":926.7244873046875,"v":[-2.060999870300293,-0.38099998235702515,417.1669921875],"w":[-0.0002099999983329326,0.0,0.0],"x":[1354.9364013671875,1892.969970703125,109.40185546875],"yaw":0.0},"ball":{"v":[0.0,0.0,0.0],"w":[0.0,0.0,0.0],"x":[0.0,0.0,92.73999786376953]}}
{"car":{"boost":false,"boost_left":69,"dodge_dir":[2.3512056226468525e-38,2.3510604481259484e-38],"dodge_timer":-1.0,"double_jumped":false,"handbrake":false,"jump":true,"jump_timer":-1.0,"jumped":true,"o":[-0.979215145111084,0.20260705053806305,-0.009388395585119724,-0.2025977373123169,-0.9792601466178894,-0.001942440983839333,-0.009587232954800129,-0.0,0.9999540448188782],"on_ground":false,"pitch":0.0,"roll":0.0,"steer":0.0,"supersonic":false,"throttle":0.0,"time":926.7412719726563,"v":[-2.060999870300293,-0.38099998235702515,406.2130126953125],"w":[-0.0002099999983329326,0.0,0.0],"x":[1354.89599609375,1892.969970703125,116.28627014160156],"yaw":0.0},"ball":{"v":[0.0,0.0,0.0],"w":[0.0,0.0,0.0],"x":[0.0,0.0,92.73999786376953]}}
{"car":{"boost":false,"boost_left":69,"dodge_dir":[2.3512056226468525e-38,2.3510604481259484e-38],"dodge_timer":-1.0,"double_jumped":false,"handbrake":false,"jump":true,"jump_timer":-1.0,"jumped":true,"o":[-0.979215145111084,0.20260705053806305,-0.009388395585119724,-0.2025977373123169,-0.9792601466178894,-0.001942440983839333,-0.009587232954800129,-0.0,0.9999540448188782],"on_ground":false,"pitch":0.0,"roll":0.0,"steer":0.0,"supersonic":false,"throttle":0.0,"time":926.7496337890625,"v":[-2.060999870300293,-0.38099998235702515,400.7928466796875],"w":[-0.0002099999983329326,0.0,0.0],"x":[1354.8759765625,1892.969970703125,119.62642669677734],"yaw":0.0},"ball":{"v":[0.0,0.0,0.0],"w":[0.0,0.0,0.0],"x":[0.0,0.0,92.73999786376953]}}
{"car":{"boost":false,"boost_left":69,"dodge_dir":[2.3512056226468525e-38,2.3510604481259484e-38],"dodge_timer":-1.0,"double_jumped":false,"handbrake":false,"jump":true,"jump_timer":-1.0,"jumped":true,"o":[-0.979215145111084,0.20260705053806305,-0.009388395585119724,-0.2025977373123169,-0.9792601466178894,-0.001942440983839333,-0.009587232954800129,-0.0,0.9999540448188782],"on_ground":false,"pitch":0.0,"roll":0.0,"steer":0.0,"supersonic":false,"throttle":0.0,"time":926.7579956054688,"v":[-2.060999870300293,-0.38099998235702515,395.3682556152344],"w":[-0.0002099999983329326,0.0,0.0],"x":[1354.85595703125,1892.969970703125,122.92123413085938],"yaw":0.0},"ball":{"v":[0.0,0.0,0.0],"w":[0.0,0.0,0.0],"x":[0.0,0.0,92.73999786376953]}}
{"car":{"boost":false,"boost_left":69,"dodge_dir":[2.3512056226468525e-38,2.3510604481259484e-38],"dodge_timer":-1.0,"double_jumped":false,"handbrake":false,"jump":true,"jump_timer":-1.0,"jumped":true,"o":[-0.979215145111084,0.20260705053806305,-0.009388395585119724,-0.2025977373123169,-0.9792601466178894,-0.001942440983839333,-0.009587232954800129,-0.0,0.9999540448188782],"on_ground":false,"pitch":0.0,"roll":0.0,"steer":0.0,"supersonic":false,"throttle":0.0,"time":926.7748413085938,"v":[-2.060999870300293,-0.38099998235702515,384.4678039550781],"w":[-0.0002099999983329326,0.0,0.0],"x":[1354.815673828125,1892.969970703125,129.4086151123047],"yaw":0.0},"ball":{"v":[0.0,0.0,0.0],"w":[0.0,0.0,0.0],"x":[0.0,0.0,92.73999786376953]}}
{"car":{"boost":false,"boost_left":69,"dodge_dir":[2.3512056226468525e-38,2.3510604481259484e-38],"dodge_timer":-1.0,"double_jumped":false,"handbrake":false,"jump":true,"jump_timer":-1.0,"jumped":true,"o":[-0.979215145111084,0.20260705053806305,-0.009388395585119724,-0.2025977373123169,-0.9792601466178894,-0.001942440983839333,-0.009587232954800129,-0.0,0.9999540448188782],"on_ground":false,"pitch":0.0,"roll":0.0,"steer":0.0,"supersonic":false,"throttle":0.0,"time":926.783203125,"v":[-2.060999870300293,-0.38099998235702515,378.9587707519531],"w":[-0.0002099999983329326,0.0,0.0],"x":[1354.79541015625,1892.969970703125,132.6193389892578],"yaw":0.0},"ball":{"v":[0.0,0.0,0.0],"w":[0.0,0.0,0.0],"x":[0.0,0.0,92.73999786376953]}}
{"car":{"boost":false,"boost_left":69,"dodge_dir":[2.3512056226468525e-38,2.3510604481259484e-38],"dodge_timer":-1.0,"double_jumped":false,"handbrake":false,"jump":true,"jump_timer":-1.0,"jumped":true,"o":[-0.979215145111084,0.20260705053806305,-0.009388395585119724,-0.2025977373123169,-0.9792601466178894,-0.001942440983839333,-0.009587232954800129,-0.0,0.9999540448188782],"on_ground":false,"pitch":0.0,"roll":0.0,"steer":0.0,"supersonic":false,"throttle":0.0,"time":926.7999267578125,"v":[-2.060999870300293,-0.38099998235702515,368.1184387207031],"w":[-0.0002099999983329326,0.0,0.0],"x":[1354.7554931640625,1892.969970703125,138.79905700683594],"yaw":0.0},"ball":{"v":[0.0,0.0,0.0],"w":[0.0,0.0,0.0],"x":[0.0,0.0,92.73999786376953]}}
{"car":{"boost":false,"boost_left":69,"dodge_dir":[2.3512056226468525e-38,2.3510604481259484e-38],"dodge_timer":-1.0,"double_jumped":false,"handbrake":false,"jump":true,"jump_timer":-1.0,"jumped":true,"o":[-0.979215145111084,0.20260705053806305,-0.009388395585119724,-0.2025977373123169,-0.9792601466178894,-0.001942440983839333,-0.009587232954800129,-0.0,0.9999540448188782],"on_ground":false,"pitch":0.0,"roll":0.0,"steer":0.0,"supersonic":false,"throttle":0.0,"time":926.8082885742188,"v":[-2.060999870300293,-0.38099998235702515,362.6982421875],"w":[-0.0002099999983329326,0.0,0.0],"x":[1354.7354736328125,1892.969970703125,141.82005310058594],"yaw":0.0},"ball":{"v":[0.0,0.0,0.0],"w":[0.0,0.0,0.0],"x":[0.0,0.0,92.73999786376953]}}
{"car":{"boost":false,"boost_left":69,"dodge_dir":[2.3512056226468525e-38,2.3510604481259484e-38],"dodge_timer":-1.0,"double_jumped":false,"handbrake":false,"jump":true,"jump_timer":-1.0,"jumped":true,"o":[-0.979215145111084,0.20260705053806305,-0.009388395585119724,-0.2025977373123169,-0.9792601466178894,-0.001942440983839333,-0.009587232954800129,-0.0,0.9999540448188782],"on_ground":false,"pitch":0.0,"roll":0.0,"steer":0.0,"supersonic":false,"throttle":0.0,"time":926.8250122070313,"v":[-2.060999870300293,-0.38099998235702515,351.81671142578125],"w":[-0.0002099999983329326,0.0,0.0],"x":[1354.6951904296875,1892.969970703125,147.75181579589844],"yaw":0.0},"ball":{"v":[0.0,0.0,0.0],"w":[0.0,0.0,0.0],"x":[0.0,0.0,92.73999786376953]}}
{"car":{"boost":false,"boost_left":69,"dodge_dir":[2.3512056226468525e-38,2.3510604481259484e-38],"dodge_timer":-1.0,"double_jumped":false,"handbrake":false,"jump":true,"jump_timer":-1.0,"jumped":true,"o":[-0.979215145111084,0.20260705053806305,-0.009388395585119724,-0.2025977373123169,-0.9792601466178894,-0.001942440983839333,-0.009587232954800129,-0.0,0.9999540448188782],"on_ground":false,"pitch":0.0,"roll":0.0,"steer":0.0,"supersonic":false,"throttle":0.0,"time":926.8333740234375,"v":[-2.060999870300293,-0.38099998235702515,346.3890686035156],"w":[-0.0002099999983329326,0.0,0.0],"x":[1354.6751708984375,1892.969970703125,150.64407348632813],"yaw":0.0},"ball":{"v":[0.0,0.0,0.0],"w":[0.0,0.0,0.0],"x":[0.0,0.0,92.73999786376953]}}
{"car":{"boost":false,"boost_left":69,"dodge_dir":[2.3512056226468525e-38,2.3510604481259484e-38],"dodge_timer":-1.0,"double_jumped":false,"handbrake":false,"jump":true,"jump_timer":-1.0,"jumped":true,"o":[-0.979215145111084,0.20260705053806305,-0.009388395585119724,-0.2025977373123169,-0.9792601466178894,-0.001942440983839333,-0.009587232954800129,-0.0,0.9999540448188782],"on_ground":false,"pitch":0.0,"roll":0.0,"steer":0.0,"supersonic":false,"throttle":0.0,"time":926.8417358398438,"v":[-2.060999870300293,-0.38099998235702515,340.9333190917969],"w":[-0.0002099999983329326,0.0,0.0],"x":[1354.655029296875,1892.969970703125,153.50314331054688],"yaw":0.0},"ball":{"v":[0.0,0.0,0.0],"w":[0.0,0.0,0.0],"x":[0.0,0.0,92.73999786376953]}}
{"car":{"boost":false,"boost_left":69,"dodge_dir":[2.3512056226468525e-38,2.3510604481259484e-38],"dodge_timer":-1.0,"double_jumped":false,"handbrake":false,"jump":true,"jump_timer":-1.0,"jumped":true,"o":[-0.979215145111084,0.20260705053806305,-0.009388395585119724,-0.2025977373123169,-0.9792601466178894,-0.001942440983839333,-0.009587232954800129,-0.0,0.9999540448188782],"on_ground":false,"pitch":0.0,"roll":0.0,"steer":0.0,"supersonic":false,"throttle":0.0,"time":926.8585205078125,"v":[-2.060999870300293,-0.38099998235702515,330.0238342285156],"w":[-0.0002099999983329326,0.0,0.0],"x":[1354.6148681640625,1892.969970703125,159.08615112304688],"yaw":0.0},"ball":{"v":[0.0,0.0,0.0],"w":[0.0,0.0,0.0],"x":[0.0,0.0,92.73999786376953]}}
{"car":{"boost":false,"boost_left":69,"dodge_dir":[2.3512056226468525e-38,2.3510604481259484e-38],"dodge_timer":-1.0,"double_jumped":false,"handbrake":false,"jump":true,"jump_timer":-1.0,"jumped":true,"o":[-0.979215145111084,0.20260705053806305,-0.009388395585119724,-0.2025977373123169,-0.9792601466178894,-0.001942440983839333,-0.009587232954800129,-0.0,0.9999540448188782],"on_ground":false,"pitch":0.0,"roll":0.0,"steer":0.0,"supersonic":false,"throttle":0.0,"time":926.8668823242188,"v":[-2.060999870300293,-0.38099998235702515,324.5889892578125],"w":[-0.0002099999983329326,0.0,0.0],"x":[1354.5948486328125,1892.969970703125,161.80067443847656],"yaw":0.0},"ball":{"v":[0.0,0.0,0.0],"w":[0.0,0.0,0.0],"x":[0.0,0.0,92.73999786376953]}}
{"car":{"boost":false,"boost_left":69,"dodge_dir":[2.3512056226468525e-38,2.3510604481259484e-38],"dodge_timer":-1.0,"double_jumped":false,"handbrake":false,"jump":true,"jump_timer":-1.0,"jumped":true,"o":[-0.979215145111084,0.20260705053806305,-0.009388395585119724,-0.2025977373123169,-0.9792601466178894,-0.001942440983839333,-0.009587232954800129,-0.0,0.9999540448188782],"on_ground":false,"pitch":0.0,"roll":0.0,"steer":0.0,"supersonic":false,"throttle":0.0,"time":926.8753051757813,"v":[-2.060999870300293,-0.38099998235702515,319.16619873046875],"w":[-0.0002099999983329326,0.0,0.0],"x":[1354.57470703125,1892.969970703125,164.461669921875],"yaw":0.0},"ball":{"v":[0.0,0.0,0.0],"w":[0.0,0.0,0.0],"x":[0.0,0.0,92.73999786376953]}}
{"car":{"boost":false,"boost_left":69,"dodge_dir":[2.3512056226468525e-38,2.3510604481259484e-38],"dodge_timer":-1.0,"double_jumped":false,"handbrake":false,"jump":true,"jump_timer":-1.0,"jumped":true,"o":[-0.979215145111084,0.20260705053806305,-0.009388395585119724,-0.2025977373123169,-0.9792601466178894,-0.001942440983839333,-0.009587232954800129,-0.0,0.9999540448188782],"on_ground":false,"pitch":0.0,"roll":0.0,"steer":0.0,"supersonic":false,"throttle":0.0,"time":926.8921508789063,"v":[-2.060999870300293,-0.38099998235702515,308.19512939453125],"w":[-0.0002099999983329326,0.0,0.0],"x":[1354.5343017578125,1892.969970703125,169.70974731445313],"yaw":0.0},"ball":{"v":[0.0,0.0,0.0],"w":[0.0,0.0,0.0],"x":[0.0,0.0,92.73999786376953]}}
{"car":{"boost":false,"boost_left":69,"dodge_dir":[2.3512056226468525e-38,2.3510604481259484e-38],"dodge_timer":-1.0,"double_jumped":false,"handbrake":false,"jump":true,"jump_timer":-1.0,"jumped":true,"o":[-0.979215145111084,0.20260705053806305,-0.009388395585119724,-0.2025977373123169,-0.9792601466178894,-0.001942440983839333,-0.009587232954800129,-0.0,0.9999540448188782],"on_ground":false,"pitch":0.0,"roll":0.0,"steer":0.0,"supersonic":false,"throttle":0.0,"time":926.9005126953125,"v":[-2.060999870300293,-0.38099998235702515,302.7647399902344],"w":[-0.0002099999983329326,0.0,0.0],"x":[1354.5142822265625,1892.969970703125,172.24037170410156],"yaw":0.0},"ball":{"v":[0.0,0.0,0.0],"w":[0.0,0.0,0.0],"x":[0.0,0.0,92.73999786376953]}}
{"car":{"boost":false,"boost_left":69,"dodge_dir":[2.3512056226468525e-38,2.3510604481259484e-38],"dodge_timer":-1.0,"double_jumped":false,"handbrake":false,"jump":true,"jump_timer":-1.0,"jumped":true,"o":[-0.979215145111084,0.20260705053806305,-0.009388395585119724,-0.2025977373123169,-0.9792601466178894,-0.001942440983839333,-0.009587232954800129,-0.0,0.9999540448188782],"on_ground":false,"pitch":0.0,"roll":0.0,"steer":0.0,"supersonic":false,"throttle":0.0,"time":926.917236328125,"v":[-2.060999870300293,-0.38099998235702515,291.8930358886719],"w":[-0.0002099999983329326,0.0,0.0],"x":[1354.47412109375,1892.969970703125,177.16873168945313],"yaw":0.0},"ball":{"v":[0.0,0.0,0.0],"w":[0.0,0.0,0.0],"x":[0.0,0.0,92.73999786376953]}}
{"car":{"boost":false,"boost_left":69,"dodge_dir":[2.3512056226468525e-38,2.3510604481259484e-38],"dodge_timer":-1.0,"double_jumped":false,"handbrake":false,"jump":true,"jump_timer":-1.0,"jumped":true,"o":[-0.979215145111084,0.20260705053806305,-0.009388395585119724,-0.2025977373123169,-0.9792601466178894,-0.001942440983839333,-0.009587232954800129,-0.0,0.9999540448188782],"on_ground":false,"pitch":0.0,"roll":0.0,"steer":0.0,"supersonic":false,"throttle":0.0,"time":926.9255981445313,"v":[-2.060999870300293,-0.38099998235702515,286.47265625],"w":[-0.0002099999983329326,0.0,0.0],"x":[1354.4541015625,1892.969970703125,179.5572509765625],"yaw":0.0},"ball":{"v":[0.0,0.0,0.0],"w":[0.0,0.0,0.0],"x":[0.0,0.0,92.73999786376953]}}
{"car":{"boost":false,"boost_left":69,"dodge_dir":[2.3512056226468525e-38,2.3510604481259484e-38],"dodge_timer":-1.0,"double_jumped":false,"handbrake":false,"jump":true,"jump_timer":-1.0,"jumped":true,"o":[-0.979215145111084,0.20260705053806305,-0.009388395585119724,-0.2025977373123169,-0.9792601466178894,-0.001942440983839333,-0.009587232954800129,-0.0,0.9999540448188782],"on_ground":false,"pitch":0.0,"roll":0.0,"steer":0.0,"supersonic":false,"throttle":0.0,"time":926.9340209960938,"v":[-2.060999870300293,-0.38099998235702515,281.0440368652344],"w":[-0.0002099999983329326,0.0,0.0],"x":[1354.43408203125,1892.969970703125,181.90635681152344],"yaw":0.0},"ball":{"v":[0.0,0.0,0.0],"w":[0.0,0.0,0.0],"x":[0.0,0.0,92.73999786376953]}}
{"car":{"boost":false,"boost_left":69,"dodge_dir":[2.3512056226468525e-38,2.3510604481259484e-38],"dodge_timer":-1.0,"double_jumped":false,"handbrake":false,"jump":true,"jump_timer":-1.0,"jumped":true,"o":[-0.979215145111084,0.20260705053806305,-0.009388395585119724,-0.2025977373123169,-0.9792601466178894,-0.001942440983839333,-0.009587232954800129,-0.0,0.9999540448188782],"on_ground":false,"pitch":0.0,"roll":0.0,"steer":0.0,"supersonic":false,"throttle":0.0,"time":926.9508056640625,"v":[-2.060999870300293,-0.38099998235702515,270.1331481933594],"w":[-0.0002099999983329326,0.0,0.0],"x":[1354.3939208984375,1892.969970703125,186.4790496826172],"yaw":0.0},"ball":{"v":[0.0,0.0,0.0],"w":[0.0,0.0,0.0],"x":[0.0,0.0,92.73999786376953]}}
{"car":{"boost":false,"boost_left":69,"dodge_dir":[2.3512056226468525e-38,2.3510604481259484e-38],"dodge_timer":-1.0,"double_jumped":false,"handbrake":false,"jump":true,"jump_timer":-1.0,"jumped":true,"o":[-0.979215145111084,0.20260705053806305,-0.009388395585119724,-0.2025977373123169,-0.9792601466178894,-0.001942440983839333,-0.009587232954800129,-0.0,0.9999540448188782],"on_ground":false,"pitch":0.0,"roll":0.0,"steer":0.0,"supersonic":false,"throttle":0.0,"time":926.9591674804688,"v":[-2.060999870300293,-0.38099998235702515,264.6723327636719],"w":[-0.0002099999983329326,0.0,0.0],"x":[1354.373779296875,1892.969970703125,188.70008850097656],"yaw":0.0},"ball":{"v":[0.0,0.0,0.0],"w":[0.0,0.0,0.0],"x":[0.0,0.0,92.73999786376953]}}
{"car":{"boost":false,"boost_left":69,"dodge_dir":[2.3512056226468525e-38,2.3510604481259484e-38],"dodge_timer":-1.0,"double_jumped":false,"handbrake":false,"jump":true,"jump_timer":-1.0,"jumped":true,"o":[-0.979215145111084,0.20260705053806305,-0.009388395585119724,-0.2025977373123169,-0.9792601466178894,-0.001942440983839333,-0.009587232954800129,-0.0,0.9999540448188782],"on_ground":false,"pitch":0.0,"roll":0.0,"steer":0.0,"supersonic":false,"throttle":0.0,"time":926.9758911132813,"v":[-2.060999870300293,-0.38099998235702515,253.79380798339844],"w":[-0.0002099999983329326,0.0,0.0],"x":[1354.33349609375,1892.969970703125,192.98666381835938],"yaw":0.0},"ball":{"v":[0.0,0.0,0.0],"w":[0.0,0.0,0.0],"x":[0.0,0.0,92.73999786376953]}}
{"car":{"boost":false,"boost_left":69,"dodge_dir":[2.3512056226468525e-38,2.3510604481259484e-38],"dodge_timer":-1.0,"double_jumped":false,"handbrake":false,"jump":true,"jump_timer":-1.0,"jumped":true,"o":[-0.979215145111084,0.20260705053806305,-0.009388395585119724,-0.2025977373123169,-0.9792601466178894,-0.001942440983839333,-0.009587232954800129,-0.0,0.9999540448188782],"on_ground":false,"pitch":0.0,"roll":0.0,"steer":0.0,"supersonic":false,"throttle":0.0,"time":926.9842529296875,"v":[-2.060999870300293,-0.38099998235702515,248.3645782470703],"w":[-0.0002099999983329326,0.0,0.0],"x":[1354.3134765625,1892.969970703125,195.0573272705078],"yaw":0.0},"ball":{"v":[0.0,0.0,0.0],"w":[0.0,0.0,0.0],"x":[0.0,0.0,92.73999786376953]}}
{"car":{"boost":true,"boost_left":69,"dodge_dir":[2.3512056226468525e-38,2.3510604481259484e-38],"dodge_timer":-1.0,"double_jumped":false,"handbrake":false,"jump":true,"jump_timer":-1.0,"jumped":true,"o":[-0.979215145111084,0.20260705053806305,-0.009388395585119724,-0.2025977373123169,-0.9792601466178894,-0.001942440983839333,-0.009587232954800129,-0.0,0.9999540448188782],"on_ground":false,"pitch":0.0,"roll":0.0,"steer":0.0,"supersonic":false,"throttle":0.0,"time":926.99267578125,"v":[-2.060999870300293,-0.38099998235702515,242.9088134765625],"w":[-0.0002099999983329326,0.0,0.0],"x":[1354.2933349609375,1892.969970703125,197.09434509277344],"yaw":0.0},"ball":{"v":[0.0,0.0,0.0],"w":[0.0,0.0,0.0],"x":[0.0,0.0,92.73999786376953]}}
{"car":{"boost":true,"boost_left":69,"dodge_dir":[2.3512056226468525e-38,2.3510604481259484e-38],"dodge_timer":-1.0,"double_jumped":false,"handbrake":false,"jump":true,"jump_timer":-1.0,"jumped":true,"o":[-0.979215145111084,0.20260705053806305,-0.009388395585119724,-0.2025977373123169,-0.9792601466178894,-0.001942440983839333,-0.009587232954800129,-0.0,0.9999540448188782],"on_ground":false,"pitch":0.0,"roll":0.0,"steer":0.0,"supersonic":false,"throttle":0.0,"time":927.0094604492188,"v":[-13.150585174560547,-2.6696863174438477,231.85585021972656],"w":[-0.0002099999983329326,0.0,0.0],"x":[1354.144287109375,1892.939453125,201.04039001464844],"yaw":0.0},"ball":{"v":[0.0,0.0,0.0],"w":[0.0,0.0,0.0],"x":[0.0,0.0,92.73999786376953]}}
{"car":{"boost":true,"boost_left":68,"dodge_dir":[2.3512056226468525e-38,2.3510604481259484e-38],"dodge_timer":-1.0,"double_jumped":false,"handbrake":false,"jump":true,"jump_timer":-1.0,"jumped":true,"o":[-0.979215145111084,0.20260705053806305,-0.009388395585119724,-0.2025977373123169,-0.9792601466178894,-0.001942440983839333,-0.009587232954800129,-0.0,0.9999540448188782],"on_ground":false,"pitch":0.0,"roll":0.0,"steer":0.0,"supersonic":false,"throttle":0.0,"time":927.017822265625,"v":[-21.780853271484375,-4.449741363525391,226.34568786621094],"w":[-0.0002099999983329326,0.0,0.0],"x":[1353.9599609375,1892.902587890625,202.92654418945313],"yaw":0.0},"ball":{"v":[0.0,0.0,0.0],"w":[0.0,0.0,0.0],"x":[0.0,0.0,92.73999786376953]}}
{"car":{"boost":true,"boost_left":68,"dodge_dir":[2.3512056226468525e-38,2.3510604481259484e-38],"dodge_timer":-1.0,"double_jumped":false,"handbrake":false,"jump":true,"jump_timer":-1.0,"jumped":true,"o":[-0.979215145111084,0.20260705053806305,-0.009388395585119724,-0.2025977373123169,-0.9792601466178894,-0.001942440983839333,-0.009587232954800129,-0.0,0.9999540448188782],"on_ground":false,"pitch":0.0,"roll":0.0,"steer":0.0,"supersonic":false,"throttle":0.0,"time":927.0346069335938,"v":[-39.1441650390625,-8.031049728393555,215.2597198486328],"w":[-0.0002099999983329326,0.0,0.0],"x":[1353.376953125,1892.7811279296875,206.58285522460938],"yaw":0.0},"ball":{"v":[0.0,0.0,0.0],"w":[0.0,0.0,0.0],"x":[0.0,0.0,92.73999786376953]}}
{"car":{"boost":true,"boost_left":67,"dodge_dir":[2.3512056226468525e-38,2.3510604481259484e-38],"dodge_timer":-1.0,"double_jumped":false,"handbrake":false,"jump":true,"jump_timer":-1.0,"jumped":true,"o":[-0.979215145111084,0.20260705053806305,-0.009388395585119724,-0.2025977373123169,-0.9792601466178894,-0.001942440983839333,-0.009587232954800129,-0.0,0.9999540448188782],"on_ground":false,"pitch":0.0,"roll":0.0,"steer":0.0,"supersonic":false,"throttle":0.0,"time":927.04296875,"v":[-47.77443313598633,-9.811105728149414,209.7495574951172],"w":[-0.0002099999983329326,0.0,0.0],"x":[1352.9818115234375,1892.6976318359375,208.32852172851563],"yaw":0.0},"ball":{"v":[0.0,0.0,0.0],"w":[0.0,0.0,0.0],"x":[0.0,0.0,92.73999786376953]}}
{"car":{"boost":true,"boost_left":67,"dodge_dir":[2.3512056226468525e-38,2.3510604481259484e-38],"dodge_timer":-1.0,"double_jumped":false,"handbrake":false,"jump":true,"jump_timer":-1.0,"jumped":true,"o":[-0.979215145111084,0.20260705053806305,-0.009388395585119724,-0.2025977373123169,-0.9792601466178894,-0.001942440983839333,-0.009587232954800129,-0.0,0.9999540448188782],"on_ground":false,"pitch":0.0,"roll":0.0,"steer":0.0,"supersonic":false,"throttle":0.0,"time":927.0597534179688,"v":[-65.0487289428711,-13.374054908752441,198.7204132080078],"w":[-0.0002099999983329326,0.0,0.0],"x":[1351.966796875,1892.486572265625,211.68885803222656],"yaw":0.0},"ball":{"v":[0.0,0.0,0.0],"w":[0.0,0.0,0.0],"x":[0.0,0.0,92.73999786376953]}}
{"car":{"boost":true,"boost_left":67,"dodge_dir":[2.3512056226468525e-38,2.3510604481259484e-38],"dodge_timer":-1.0,"double_jumped":false,"handbrake":false,"jump":true,"jump_timer":-1.0,"jumped":true,"o":[-0.979215145111084,0.20260705053806305,-0.009388395585119724,-0.2025977373123169,-0.9792601466178894,-0.001942440983839333,-0.009587232954800129,-0.0,0.9999540448188782],"on_ground":false,"pitch":0.0,"roll":0.0,"steer":0.0,"supersonic":false,"throttle":0.0,"time":927.068115234375,"v":[-73.76544189453125,-15.171939849853516,193.15505981445313],"w":[-0.0002099999983329326,0.0,0.0],"x":[1351.3448486328125,1892.35791015625,213.31668090820313],"yaw":0.0},"ball":{"v":[0.0,0.0,0.0],"w":[0.0,0.0,0.0],"x":[0.0,0.0,92.73999786376953]}}
{"car":{"boost":true,"boost_left":66,"dodge_dir":[2.3512056226468525e-38,2.3510604481259484e-38],"dodge_timer":-1.0,"double_jumped":false,"handbrake":false,"jump":true,"jump_timer":-1.0,"jumped":true,"o":[-0.979215145111084,0.20260705053806305,-0.009388395585119724,-0.2025977373123169,-0.9792601466178894,-0.001942440983839333,-0.009587232954800129,-0.0,0.9999540448188782],"on_ground":false,"pitch":0.0,"roll":0.0,"steer":0.0,"supersonic":false,"throttle":0.0,"time":927.0848388671875,"v":[-91.04006958007813,-18.734954833984375,182.12571716308594],"w":[-0.0002099999983329326,0.0,0.0],"x":[1349.901611328125,1892.0565185546875,216.39578247070313],"yaw":0.0},"ball":{"v":[0.0,0.0,0.0],"w":[0.0,0.0,0.0],"x":[0.0,0.0,92.73999786376953]}}
{"car":{"boost":true,"boost_left":66,"dodge_dir":[2.3512056226468525e-38,2.3510604481259484e-38],"dodge_timer":-1.0,"double_jumped":false,"handbrake":false,"jump":true,"jump_timer":-1.0,"jumped":true,"o":[-0.979215145111084,0.20260705053806305,-0.009388395585119724,-0.2025977373123169,-0.9792601466178894,-0.001942440983839333,-0.009587232954800129,-0.0,0.9999540448188782],"on_ground":false,"pitch":0.0,"roll":0.0,"steer":0.0,"supersonic":false,"throttle":0.0,"time":927.0932006835938,"v":[-99.7298812866211,-20.527294158935547,176.57752990722656],"w":[-0.0002099999983329326,0.0,0.0],"x":[1349.065673828125,1891.881591796875,217.87710571289063],"yaw":0.0},"ball":{"v":[0.0,0.0,0.0],"w":[0.0,0.0,0.0],"x":[0.0,0.0,92.73999786376953]}}
{"car":{"boost":true,"boost_left":66,"dodge_dir":[2.3512056226468525e-38,2.3510604481259484e-38],"dodge_timer":-1.0,"double_jumped":false,"handbrake":false,"jump":true,"jump_timer":-1.0,"jumped":true,"o":[-0.979215145111084,0.20260705053806305,-0.009388395585119724,-0.2025977373123169,-0.9792601466178894,-0.001942440983839333,-0.009587232954800129,-0.0,0.9999540448188782],"on_ground":false,"pitch":0.0,"roll":0.0,"steer":0.0,"supersonic":false,"throttle":0.0,"time":927.1016235351563,"v":[-108.40657806396484,-22.316925048828125,171.0377197265625],"w":[-0.0002099999983329326,0.0,0.0],"x":[1348.1539306640625,1891.69287109375,219.30947875976563],"yaw":0.0},"ball":{"v":[0.0,0.0,0.0],"w":[0.0,0.0,0.0],"x":[0.0,0.0,92.73999786376953]}}
{"car":{"boost":true,"boost_left":65,"dodge_dir":[2.3512056226468525e-38,2.3510604481259484e-38],"dodge_timer":-1.0,"double_jumped":false,"handbrake":false,"jump":true,"jump_timer":-1.0,"jumped":true,"o":[-0.979215145111084,0.20260705053806305,-0.009388395585119724,-0.2025977373123169,-0.9792601466178894,-0.001942440983839333,-0.009587232954800129,-0.0,0.9999540448188782],"on_ground":false,"pitch":0.0,"roll":0.0,"steer":0.0,"supersonic":false,"throttle":0.0,"time":927.1100463867188,"v":[-117.12458038330078,-24.115074157714844,165.47152709960938],"w":[-0.0002099999983329326,0.0,0.0],"x":[1347.16650390625,1891.4869384765625,220.7039794921875],"yaw":0.0},"ball":{"v":[0.0,0.0,0.0],"w":[0.0,0.0,0.0],"x":[0.0,0.0,92.73999786376953]}}
{"car":{"boost":true,"boost_left":65,"dodge_dir":[2.3512056226468525e-38,2.3510604481259484e-38],"dodge_timer":-1.0,"double_jumped":false,"handbrake":false,"jump":true,"jump_timer":-1.0,"jumped":true,"o":[-0.979215145111084,0.20260705053806305,-0.009388395585119724,-0.2025977373123169,-0.9792601466178894,-0.001942440983839333,-0.009587232954800129,-0.0,0.9999540448188782],"on_ground":false,"pitch":0.0,"roll":0.0,"steer":0.0,"supersonic":false,"throttle":0.0,"time":927.118408203125,"v":[-125.87139892578125,-25.91916847229004,159.88694763183594],"w":[-0.0002099999983329326,0.0,0.0],"x":[1346.10400390625,1891.27001953125,222.05589294433594],"yaw":0.0},"ball":{"v":[0.0,0.0,0.0],"w":[0.0,0.0,0.0],"x":[0.0,0.0,92.73999786376953]}}
{"car":{"boost":true,"boost_left":65,"dodge_dir":[2.3512056226468525e-38,2.3510604481259484e-38],"dodge_timer":-1.0,"double_jumped":false,"handbrake":false,"jump":true,"jump_timer":-1.0,"jumped":true,"o":[-0.979215145111084,0.20260705053806305,-0.009388395585119724,-0.2025977373123169,-0.9792601466178894,-0.001942440983839333,-0.009587232954800129,-0.0,0.9999540448188782],"on_ground":false,"pitch":0.0,"roll":0.0,"steer":0.0,"supersonic":false,"throttle":0.0,"time":927.1267700195313,"v":[-134.5016632080078,-27.699222564697266,154.37677001953125],"w":[-0.0002099999983329326,0.0,0.0],"x":[1344.9853515625,1891.041748046875,223.34548950195313],"yaw":0.0},"ball":{"v":[0.0,0.0,0.0],"w":[0.0,0.0,0.0],"x":[0.0,0.0,92.73999786376953]}}
{"car":{"boost":true,"boost_left":64,"dodge_dir":[2.3512056226468525e-38,2.3510604481259484e-38],"dodge_timer":-1.0,"double_jumped":false,"handbrake":false,"jump":true,"jump_timer":-1.0,"jumped":true,"o":[-0.979215145111084,0.20260705053806305,-0.009388395585119724,-0.2025977373123169,-0.9792601466178894,-0.001942440983839333,-0.009587232954800129,-0.0,0.9999540448188782],"on_ground":false,"pitch":0.0,"roll":0.0,"steer":0.0,"supersonic":false,"throttle":0.0,"time":927.1351318359375,"v":[-143.13192749023438,-29.479278564453125,148.86660766601563],"w":[-0.0002099999983329326,0.0,0.0],"x":[1343.7926025390625,1890.797607421875,224.58505249023438],"yaw":0.0},"ball":{"v":[0.0,0.0,0.0],"w":[0.0,0.0,0.0],"x":[0.0,0.0,92.73999786376953]}}
{"car":{"boost":true,"boost_left":64,"dodge_dir":[2.3512056226468525e-38,2.3510604481259484e-38],"dodge_timer":-1.0,"double_jumped":false,"handbrake":false,"jump":true,"jump_timer":-1.0,"jumped":true,"o":[-0.979215145111084,0.20260705053806305,-0.009388395585119724,-0.2025977373123169,-0.9792601466178894,-0.001942440983839333,-0.009587232954800129,-0.0,0.9999540448188782],"on_ground":false,"pitch":0.0,"roll":0.0,"steer":0.0,"supersonic":false,"throttle":0.0,"time":927.1434936523438,"v":[-151.8031768798828,-31.267786026000977,143.3302764892578],"w":[-0.0002099999983329326,0.0,0.0],"x":[1342.5177001953125,1890.5382080078125,225.78428649902344],"yaw":0.0},"ball":{"v":[0.0,0.0,0.0],"w":[0.0,0.0,0.0],"x":[0.0,0.0,92.73999786376953]}}
{"car":{"boost":true,"boost_left":64,"dodge_dir":[2.3512056226468525e-38,2.3510604481259484e-38],"dodge_timer":-1.0,"double_jumped":false,"handbrake":false,"jump":true,"jump_timer":-1.0,"jumped":true,"o":[-0.979215145111084,0.20260705053806305,-0.009388395585119724,-0.2025977373123169,-0.9792601466178894,-0.001942440983839333,-0.009587232954800129,-0.0,0.9999540448188782],"on_ground":false,"pitch":0.0,"roll":0.0,"steer":0.0,"supersonic":false,"throttle":0.0,"time":927.152099609375,"v":[-160.46835327148438,-33.05503845214844,137.79782104492188],"w":[-0.0002099999983329326,0.0,0.0],"x":[1341.1732177734375,1890.262939453125,226.9381561279297],"yaw":0.0},"ball":{"v":[0.0,0.0,0.0],"w":[0.0,0.0,0.0],"x":[0.0,0.0,92.73999786376953]}}
{"car":{"boost":true,"boost_left":64,"dodge_dir":[2.3512056226468525e-38,2.3510604481259484e-38],"dodge_timer":-1.0,"double_jumped":false,"handbrake":false,"jump":true,"jump_timer":-1.0,"jumped":true,"o":[-0.979215145111084,0.20260705053806305,-0.009388395585119724,-0.2025977373123169,-0.9792601466178894,-0.001942440983839333,-0.009587232954800129,-0.0,0.9999540448188782],"on_ground":false,"pitch":0.0,"roll":0.0,"steer":0.0,"supersonic":false,"throttle":0.0,"time":927.1604614257813,"v":[-169.39413452148438,-34.89604949951172,132.09896850585938],"w":[-0.0002099999983329326,0.0,0.0],"x":[1339.714111328125,1889.9642333984375,228.07846069335938],"yaw":0.0},"ball":{"v":[0.0,0.0,0.0],"w":[0.0,0.0,0.0],"x":[0.0,0.0,92.73999786376953]}}
{"car":{"boost":true,"boost_left":63,"dodge_dir":[2.3512056226468525e-38,2.3510604481259484e-38],"dodge_timer":-1.0,"double_jumped":false,"handbrake":false,"jump":true,"jump_timer":-1.0,"jumped":true,"o":[-0.979215145111084,0.20260705053806305,-0.009388395585119724,-0.2025977373123169,-0.9792601466178894,-0.001942440983839333,-0.009587232954800129,-0.0,0.9999540448188782],"on_ground":false,"pitch":0.0,"roll":0.0,"steer":0.0,"supersonic":false,"throttle":0.0,"time":927.1688232421875,"v":[-178.0244140625,-36.67610549926758,126.58879089355469],"w":[-0.0002099999983329326,0.0,0.0],"x":[1338.232421875,1889.6597900390625,229.13587951660156],"yaw":0.0},"ball":{"v":[0.0,0.0,0.0],"w":[0.0,0.0,0.0],"x":[0.0,0.0,92.73999786376953]}}
{"car":{"boost":true,"boost_left":63,"dodge_dir":[2.3512056226468525e-38,2.3510604481259484e-38],"dodge_timer":-1.0,"double_jumped":false,"handbrake":false,"jump":true,"jump_timer":-1.0,"jumped":true,"o":[-0.979215145111084,0.20260705053806305,-0.009388395585119724,-0.2025977373123169,-0.9792601466178894,-0.001942440983839333,-0.009587232954800129,-0.0,0.9999540448188782],"on_ground":false,"pitch":0.0,"roll":0.0,"steer":0.0,"supersonic":false,"throttle":0.0,"time":927.1771850585938,"v":[-186.65467834472656,-38.45616149902344,121.07861328125],"w":[-0.0002099999983329326,0.0,0.0],"x":[1336.6807861328125,1889.3406982421875,230.14328002929688],"yaw":0.0},"ball":{"v":[0.0,0.0,0.0],"w":[0.0,0.0,0.0],"x":[0.0,0.0,92.73999786376953]}}
{"car":{"boost":true,"boost_left":63,"dodge_dir":[2.3512056226468525e-38,2.3510604481259484e-38],"dodge_timer":-1.0,"double_jumped":false,"handbrake":false,"jump":true,"jump_timer":-1.0,"jumped":true,"o":[-0.979215145111084,0.20260705053806305,-0.009388395585119724,-0.2025977373123169,-0.9792601466178894,-0.001942440983839333,-0.009587232954800129,-0.0,0.9999540448188782],"on_ground":false,"pitch":0.0,"roll":0.0,"steer":0.0,"supersonic":false,"throttle":0.0,"time":927.185546875,"v":[-195.28526306152344,-40.23628234863281,115.5682373046875],"w":[-0.0002099999983329326,0.0,0.0],"x":[1335.054443359375,1889.006103515625,231.10525512695313],"yaw":0.0},"ball":{"v":[0.0,0.0,0.0],"w":[0.0,0.0,0.0],"x":[0.0,0.0,92.73999786376953]}}
{"car":{"boost":true,"boost_left":62,"dodge_dir":[2.3512056226468525e-38,2.3510604481259484e-38],"dodge_timer":-1.0,"double_jumped":false,"handbrake":false,"jump":true,"jump_timer":-1.0,"jumped":true,"o":[-0.979215145111084,0.20260705053806305,-0.009388395585119724,-0.2025977373123169,-0.9792601466178894,-0.001942440983839333,-0.009587232954800129,-0.0,0.9999540448188782],"on_ground":false,"pitch":0.0,"roll":0.0,"steer":0.0,"supersonic":false,"throttle":0.0,"time":927.1939086914063,"v":[-203.91552734375,-42.016334533691406,110.05807495117188],"w":[-0.0002099999983329326,0.0,0.0],"x":[1333.352783203125,1888.6571044921875,232.0226593017578],"yaw":0.0},"ball":{"v":[0.0,0.0,0.0],"w":[0.0,0.0,0.0],"x":[0.0,0.0,92.73999786376953]}}
{"car":{"boost":true,"boost_left":62,"dodge_dir":[2.3512056226468525e-38,2.3510604481259484e-38],"dodge_timer":-1.0,"double_jumped":false,"handbrake":false,"jump":true,"jump_timer":-1.0,"jumped":true,"o":[-0.979215145111084,0.20260705053806305,-0.009388395585119724,-0.2025977373123169,-0.9792601466178894,-0.001942440983839333,-0.009587232954800129,-0.0,0.9999540448188782],"on_ground":false,"pitch":0.0,"roll":0.0,"steer":0.0,"supersonic":false,"throttle":0.0,"time":927.2022705078125,"v":[-212.54579162597656,-43.796390533447266,104.54790496826172],"w":[-0.0002099999983329326,0.0,0.0],"x":[1331.5810546875,1888.2926025390625,232.89459228515625],"yaw":0.0},"ball":{"v":[0.0,0.0,0.0],"w":[0.0,0.0,0.0],"x":[0.0,0.0,92.73999786376953]}}
{"car":{"boost":true,"boost_left":62,"dodge_dir":[2.3512056226468525e-38,2.3510604481259484e-38],"dodge_timer":-1.0,"double_jumped":false,"handbrake":false,"jump":true,"jump_timer":-1.0,"jumped":true,"o":[-0.979215145111084,0.20260705053806305,-0.009388395585119724,-0.2025977373123169,-0.9792601466178894,-0.001942440983839333,-0.009587232954800129,-0.0,0.9999540448188782],"on_ground":false,"pitch":0.0,"roll":0.0,"steer":0.0,"supersonic":false,"throttle":0.0,"time":927.2106323242188,"v":[-221.17605590820313,-45.576446533203125,99.03773498535156],"w":[-0.0002099999983329326,0.0,0.0],"x":[1329.7392578125,1887.9134521484375,233.7220001220703],"yaw":0.0},"ball":{"v":[0.0,0.0,0.0],"w":[0.0,0.0,0.0],"x":[0.0,0.0,92.73999786376953]}}
{"car":{"boost":true,"boost_left":62,"dodge_dir":[2.3512056226468525e-38,2.3510604481259484e-38],"dodge_timer":-1.0,"double_jumped":false,"handbrake":false,"jump":true,"jump_timer":-1.0,"jumped":true,"o":[-0.979215145111084,0.20260705053806305,-0.009388395585119724,-0.2025977373123169,-0.9792601466178894,-0.001942440983839333,-0.009587232954800129,-0.0,0.9999540448188782],"on_ground":false,"pitch":0.0,"roll":0.0,"steer":0.0,"supersonic":false,"throttle":0.0,"time":927.2191162109375,"v":[-229.80633544921875,-47.35649871826172,93.52755737304688],"w":[-0.0002099999983329326,0.0,0.0],"x":[1327.8275146484375,1887.5189208984375,234.4993896484375],"yaw":0.0},"ball":{"v":[0.0,0.0,0.0],"w":[0.0,0.0,0.0],"x":[0.0,0.0,92.73999786376953]}}
{"car":{"boost":true,"boost_left":61,"dodge_dir":[2.3512056226468525e-38,2.3510604481259484e-38],"dodge_timer":-1.0,"double_jumped":false,"handbrake":false,"jump":true,"jump_timer":-1.0,"jumped":true,"o":[-0.979215145111084,0.20260705053806305,-0.009388395585119724,-0.2025977373123169,-0.9792601466178894,-0.001942440983839333,-0.009587232954800129,-0.0,0.9999540448188782],"on_ground":false,"pitch":0.0,"roll":0.0,"steer":0.0,"supersonic":false,"throttle":0.0,"time":927.2274780273438,"v":[-238.57875061035156,-49.16587829589844,87.92662048339844],"w":[-0.0002099999983329326,0.0,0.0],"x":[1325.807861328125,1887.10302734375,235.24301147460938],"yaw":0.0},"ball":{"v":[0.0,0.0,0.0],"w":[0.0,0.0,0.0],"x":[0.0,0.0,92.73999786376953]}}
{"car":{"boost":true,"boost_left":61,"dodge_dir":[2.3512056226468525e-38,2.3510604481259484e-38],"dodge_timer":-1.0,"double_jumped":false,"handbrake":false,"jump":true,"jump_timer":-1.0,"jumped":true,"o":[-0.979215145111084,0.20260705053806305,-0.009388395585119724,-0.2025977373123169,-0.9792601466178894,-0.001942440983839333,-0.009587232954800129,-0.0,0.9999540448188782],"on_ground":false,"pitch":0.0,"roll":0.0,"steer":0.0,"supersonic":false,"throttle":0.0,"time":927.2359008789063,"v":[-247.2135009765625,-50.94685745239258,82.4135971069336],"w":[-0.0002099999983329326,0.0,0.0],"x":[1323.743896484375,1886.6781005859375,235.92991638183594],"yaw":0.0},"ball":{"v":[0.0,0.0,0.0],"w":[0.0,0.0,0.0],"x":[0.0,0.0,92.73999786376953]}}
{"car":{"boost":true,"boost_left":61,"dodge_dir":[2.3512056226468525e-38,2.3510604481259484e-38],"dodge_timer":-1.0,"double_jumped":false,"handbrake":false,"jump":true,"jump_timer":-1.0,"jumped":true,"o":[-0.979215145111084,0.20260705053806305,-0.009388395585119724,-0.2025977373123169,-0.9792601466178894,-0.001942440983839333,-0.009587232954800129,-0.0,0.9999540448188782],"on_ground":false,"pitch":0.0,"roll":0.0,"steer":0.0,"supersonic":false,"throttle":0.0,"time":927.2442626953125,"v":[-255.91004943847656,-52.74058151245117,76.8611068725586],"w":[-0.0002099999983329326,0.0,0.0],"x":[1321.59423828125,1886.2352294921875,236.57591247558594],"yaw":0.0},"ball":{"v":[0.0,0.0,0.0],"w":[0.0,0.0,0.0],"x":[0.0,0.0,92.73999786376953]}}
{"car":{"boost":true,"boost_left":61,"dodge_dir":[2.3512056226468525e-38,2.3510604481259484e-38],"dodge_timer":-1.0,"double_jumped":false,"handbrake":false,"jump":true,"jump_timer":-1.0,"jumped":true,"o":[-0.979215145111084,0.20260705053806305,-0.009388395585119724,-0.2025977373123169,-0.9792601466178894,-0.001942440983839333,-0.009587232954800129,-0.0,0.9999540448188782],"on_ground":false,"pitch":0.0,"roll":0.0,"steer":0.0,"supersonic":false,"throttle":0.0,"time":927.252685546875,"v":[-264.5403137207031,-54.520633697509766,71.35093688964844],"w":[-0.0002099999983329326,0.0,0.0],"x":[1319.3907470703125,1885.7803955078125,237.1720733642578],"yaw":0.0},"ball":{"v":[0.0,0.0,0.0],"w":[0.0,0.0,0.0],"x":[0.0,0.0,92.73999786376953]}}
{"car":{"boost":true,"boost_left":60,"dodge_dir":[2.3512056226468525e-38,2.3510604481259484e-38],"dodge_timer":-1.0,"double_jumped":false,"handbrake":false,"jump":true,"jump_timer":-1.0,"jumped":true,"o":[-0.979215145111084,0.20260705053806305,-0.009388395585119724,-0.2025977373123169,-0.9792601466178894,-0.001942440983839333,-0.009587232954800129,-0.0,0.9999540448188782],"on_ground":false,"pitch":0.0,"roll":0.0,"steer":0.0,"supersonic":false,"throttle":0.0,"time":927.2610473632813,"v":[-273.2429504394531,-56.315616607666016,65.79457092285156],"w":[-0.0002099999983329326,0.0,0.0],"x":[1317.097900390625,1885.3067626953125,237.7225799560547],"yaw":0.0},"ball":{"v":[0.0,0.0,0.0],"w":[0.0,0.0,0.0],"x":[0.0,0.0,92.73999786376953]}}
{"car":{"boost":true,"boost_left":60,"dodge_dir":[2.3512056226468525e-38,2.3510604481259484e-38],"dodge_timer":-1.0,"double_jumped":false,"handbrake":false,"jump":true,"jump_timer":-1.0,"jumped":true,"o":[-0.979215145111084,0.20260705053806305,-0.009388395585119724,-0.2025977373123169,-0.9792601466178894,-0.001942440983839333,-0.009587232954800129,-0.0,0.9999540448188782],"on_ground":false,"pitch":0.0,"roll":0.0,"steer":0.0,"supersonic":false,"throttle":0.0,"time":927.2694091796875,"v":[-281.89593505859375,-58.10036087036133,60.26988220214844],"w":[-0.0002099999983329326,0.0,0.0],"x":[1314.74267578125,1884.8206787109375,238.22442626953125],"yaw":0.0},"ball":{"v":[0.0,0.0,0.0],"w":[0.0,0.0,0.0],"x":[0.0,0.0,92.73999786376953]}}
{"car":{"boost":true,"boost_left":60,"dodge_dir":[2.3512056226468525e-38,2.3510604481259484e-38],"dodge_timer":-1.0,"double_jumped":false,"handbrake":false,"jump":true,"jump_timer":-1.0,"jumped":true,"o":[-0.979215145111084,0.20260705053806305,-0.009388395585119724,-0.2025977373123169,-0.9792601466178894,-0.001942440983839333,-0.009587232954800129,-0.0,0.9999540448188782],"on_ground":false,"pitch":0.0,"roll":0.0,"steer":0.0,"supersonic":false,"throttle":0.0,"time":927.2777709960938,"v":[-290.5534362792969,-59.88602828979492,54.74233627319336],"w":[-0.0002099999983329326,0.0,0.0],"x":[1312.3106689453125,1884.3192138671875,238.68138122558594],"yaw":0.0},"ball":{"v":[0.0,0.0,0.0],"w":[0.0,0.0,0.0],"x":[0.0,0.0,92.73999786376953]}}
{"car":{"boost":true,"boost_left":59,"dodge_dir":[2.3512056226468525e-38,2.3510604481259484e-38],"dodge_timer":-1.0,"double_jumped":false,"handbrake":false,"jump":true,"jump_timer":-1.0,"jumped":true,"o":[-0.979215145111084,0.20260705053806305,-0.009388395585119724,-0.2025977373123169,-0.9792601466178894,-0.001942440983839333,-0.009587232954800129,-0.0,0.9999540448188782],"on_ground":false,"pitch":0.0,"roll":0.0,"steer":0.0,"supersonic":false,"throttle":0.0,"time":927.2861328125,"v":[-299.2224426269531,-61.674076080322266,49.207427978515625],"w":[-0.0002099999983329326,0.0,0.0],"x":[1309.8048095703125,1883.802001953125,239.09347534179688],"yaw":0.0},"ball":{"v":[0.0,0.0,0.0],"w":[0.0,0.0,0.0],"x":[0.0,0.0,92.73999786376953]}}
{"car":{"boost":true,"boost_left":59,"dodge_dir":[2.3512056226468525e-38,2.3510604481259484e-38],"dodge_timer":-1.0,"double_jumped":false,"handbrake":false,"jump":true,"jump_timer":-1.0,"jumped":true,"o":[-0.979215145111084,0.20260705053806305,-0.009388395585119724,-0.2025977373123169,-0.9792601466178894,-0.001942440983839333,-0.009587232954800129,-0.0,0.9999540448188782],"on_ground":false,"pitch":0.0,"roll":0.0,"steer":0.0,"supersonic":false,"throttle":0.0,"time":927.2944946289063,"v":[-307.8853759765625,-63.46086502075195,43.67640686035156],"w":[-0.0002099999983329326,0.0,0.0],"x":[1307.230224609375,1883.27001953125,239.4599609375],"yaw":0.0},"ball":{"v":[0.0,0.0,0.0],"w":[0.0,0.0,0.0],"x":[0.0,0.0,92.73999786376953]}}
{"car":{"boost":true,"boost_left":59,"dodge_dir":[2.3512056226468525e-38,2.3510604481259484e-38],"dodge_timer":-1.0,"double_jumped":false,"handbrake":false,"jump":true,"jump_timer":-1.0,"jumped":true,"o":[-0.979215145111084,0.20260705053806305,-0.009388395585119724,-0.2025977373123169,-0.9792601466178894,-0.001942440983839333,-0.009587232954800129,-0.0,0.9999540448188782],"on_ground":false,"pitch":0.0,"roll":0.0,"steer":0.0,"supersonic":false,"throttle":0.0,"time":927.3028564453125,"v":[-316.5527648925781,-65.24858093261719,38.14252471923828],"w":[-0.0002099999983329326,0.0,0.0],"x":[1304.5836181640625,1882.72265625,239.78126525878906],"yaw":0.0},"ball":{"v":[0.0,0.0,0.0],"w":[0.0,0.0,0.0],"x":[0.0,0.0,92.73999786376953]}}
{"car":{"boost":true,"boost_left":59,"dodge_dir":[2.3512056226468525e-38,2.3510604481259484e-38],"dodge_timer":-1.0,"double_jumped":false,"handbrake":false,"jump":true,"jump_timer":-1.0,"jumped":true,"o":[-0.979215145111084,0.20260705053806305,-0.009388395585119724,-0.2025977373123169,-0.9792601466178894,-0.001942440983839333,-0.009587232954800129,-0.0,0.9999540448188782],"on_ground":false,"pitch":0.0,"roll":0.0,"steer":0.0,"supersonic":false,"throttle":0.0,"time":927.311279296875,"v":[-325.2297668457031,-67.03827667236328,32.602508544921875],"w":[-0.0002099999983329326,0.0,0.0],"x":[1301.8582763671875,1882.159423828125,240.0574188232422],"yaw":0.0},"ball":{"v":[0.0,0.0,0.0],"w":[0.0,0.0,0.0],"x":[0.0,0.0,92.73999786376953]}}
{"car":{"boost":true,"boost_left":58,"dodge_dir":[2.3512056226468525e-38,2.3510604481259484e-38],"dodge_timer":-1.0,"double_jumped":false,"handbrake":false,"jump":true,"jump_timer":-1.0,"jumped":true,"o":[-0.979215145111084,0.20260705053806305,-0.009388395585119724,-0.2025977373123169,-0.9792601466178894,-0.001942440983839333,-0.009587232954800129,-0.0,0.9999540448188782],"on_ground":false,"pitch":0.0,"roll":0.0,"steer":0.0,"supersonic":false,"throttle":0.0,"time":927.3196411132813,"v":[-333.95513916015625,-68.83794403076172,27.03162384033203],"w":[-0.0002099999983329326,0.0,0.0],"x":[1299.0413818359375,1881.577880859375,240.28414916992188],"yaw":0.0},"ball":{"v":[0.0,0.0,0.0],"w":[0.0,0.0,0.0],"x":[0.0,0.0,92.73999786376953]}}
{"car":{"boost":true,"boost_left":58,"dodge_dir":[2.3512056226468525e-38,2.3510604481259484e-38],"dodge_timer":-1.0,"double_jumped":false,"handbrake":false,"jump":true,"jump_timer":-1.0,"jumped":true,"o":[-0.979215145111084,0.20260705053806305,-0.009388395585119724,-0.2025977373123169,-0.9792601466178894,-0.001942440983839333,-0.009587232954800129,-0.0,0.9999540448188782],"on_ground":false,"pitch":0.0,"roll":0.0,"steer":0.0,"supersonic":false,"throttle":0.0,"time":927.328125,"v":[-342.5857238769531,-70.6180648803711,21.52124786376953],"w":[-0.0002099999983329326,0.0,0.0],"x":[1296.1846923828125,1880.9874267578125,240.46331787109375],"yaw":0.0},"ball":{"v":[0.0,0.0,0.0],"w":[0.0,0.0,0.0],"x":[0.0,0.0,92.73999786376953]}}
{"car":{"boost":true,"boost_left":58,"dodge_dir":[2.3512056226468525e-38,2.3510604481259484e-38],"dodge_timer":-1.0,"double_jumped":false,"handbrake":false,"jump":true,"jump_timer":-1.0,"jumped":true,"o":[-0.979215145111084,0.20260705053806305,-0.009388395585119724,-0.2025977373123169,-0.9792601466178894,-0.001942440983839333,-0.009587232954800129,-0.0,0.9999540448188782],"on_ground":false,"pitch":0.0,"roll":0.0,"steer":0.0,"supersonic":false,"throttle":0.0,"time":927.3364868164063,"v":[-351.388916015625,-72.43378448486328,15.900687217712402],"w":[-0.0002099999983329326,0.0,0.0],"x":[1293.1988525390625,1880.3699951171875,240.5994873046875],"yaw":0.0},"ball":{"v":[0.0,0.0,0.0],"w":[0.0,0.0,0.0],"x":[0.0,0.0,92.73999786376953]}}
{"car":{"boost":true,"boost_left":57,"dodge_dir":[2.3512056226468525e-38,2.3510604481259484e-38],"dodge_timer":-1.0,"double_jumped":false,"handbrake":false,"jump":true,"jump_timer":-1.0,"jumped":true,"o":[-0.979215145111084,0.20260705053806305,-0.009388395585119724,-0.2025977373123169,-0.9792601466178894,-0.001942440983839333,-0.009587232954800129,-0.0,0.9999540448188782],"on_ground":false,"pitch":0.0,"roll":0.0,"steer":0.0,"supersonic":false,"throttle":0.0,"time":927.3448486328125,"v":[-360.0191650390625,-74.21383666992188,10.390518188476563],"w":[-0.0002099999983329326,0.0,0.0],"x":[1290.200927734375,1879.7491455078125,240.6878662109375],"yaw":0.0},"ball":{"v":[0.0,0.0,0.0],"w":[0.0,0.0,0.0],"x":[0.0,0.0,92.73999786376953]}}
{"car":{"boost":true,"boost_left":57,"dodge_dir":[2.3512056226468525e-38,2.3510604481259484e-38],"dodge_timer":-1.0,"double_jumped":false,"handbrake":false,"jump":true,"jump_timer":-1.0,"jumped":true,"o":[-0.979215145111084,0.20260705053806305,-0.009388395585119724,-0.2025977373123169,-0.9792601466178894,-0.001942440983839333,-0.009587232954800129,-0.0,0.9999540448188782],"on_ground":false,"pitch":0.0,"roll":0.0,"steer":0.0,"supersonic":false,"throttle":0.0,"time":927.3532104492188,"v":[-368.6494140625,-75.993896484375,4.880348205566406],"w":[-0.0002099999983329326,0.0,0.0],"x":[1287.1275634765625,1879.11376953125,240.73081970214844],"yaw":0.0},"ball":{"v":[0.0,0.0,0.0],"w":[0.0,0.0,0.0],"x":[0.0,0.0,92.73999786376953]}}
{"car":{"boost":true,"boost_left":57,"dodge_dir":[2.3512056226468525e-38,2.3510604481259484e-38],"dodge_timer":-1.0,"double_jumped":false,"handbrake":false,"jump":true,"jump_timer":-1.0,"jumped":true,"o":[-0.979215145111084,0.20260705053806305,-0.009388395585119724,-0.2025977373123169,-0.9792601466178894,-0.001942440983839333,-0.009587232954800129,-0.0,0.9999540448188782],"on_ground":false,"pitch":0.0,"roll":0.0,"steer":0.0,"supersonic":false,"throttle":0.0,"time":927.361572265625,"v":[-377.2796936035156,-77.7739486694336,-0.625495195388794],"w":[-0.0002099999983329326,0.0,0.0],"x":[1283.9796142578125,1878.462890625,240.7237548828125],"yaw":0.0},"ball":{"v":[0.0,0.0,0.0],"w":[0.0,0.0,0.0],"x":[0.0,0.0,92.73999786376953]}}
{"car":{"boost":true,"boost_left":57,"dodge_dir":[2.3512056226468525e-38,2.3510604481259484e-38],"dodge_timer":-1.0,"double_jumped":false,"handbrake":false,"jump":true,"jump_timer":-1.0,"jumped":true,"o":[-0.979215145111084,0.20260705053806305,-0.009388395585119724,-0.2025977373123169,-0.9792601466178894,-0.001942440983839333,-0.009587232954800129,-0.0,0.9999540448188782],"on_ground":false,"pitch":0.0,"roll":0.0,"steer":0.0,"supersonic":false,"throttle":0.0,"time":927.3699340820313,"v":[-385.9355773925781,-79.55928802490234,-6.142908096313477],"w":[-0.0002099999983329326,0.0,0.0],"x":[1280.7520751953125,1877.7955322265625,240.6719207763672],"yaw":0.0},"ball":{"v":[0.0,0.0,0.0],"w":[0.0,0.0,0.0],"x":[0.0,0.0,92.73999786376953]}}
{"car":{"boost":true,"boost_left":56,"dodge_dir":[2.3512056226468525e-38,2.3510604481259484e-38],"dodge_timer":-1.0,"double_jumped":false,"handbrake":false,"jump":true,"jump_timer":-1.0,"jumped":true,"o":[-0.979215145111084,0.20260705053806305,-0.009388395585119724,-0.2025977373123169,-0.9792601466178894,-0.001942440983839333,-0.009587232954800129,-0.0,0.9999540448188782],"on_ground":false,"pitch":0.0,"roll":0.0,"steer":0.0,"supersonic":false,"throttle":0.0,"time":927.3782958984375,"v":[-394.6170654296875,-81.34990692138672,-11.675725936889648],"w":[-0.0002099999983329326,0.0,0.0],"x":[1277.444091796875,1877.115966796875,240.57400512695313],"yaw":0.0},"ball":{"v":[0.0,0.0,0.0],"w":[0.0,0.0,0.0],"x":[0.0,0.0,92.73999786376953]}}
{"car":{"boost":true,"boost_left":56,"dodge_dir":[2.3512056226468525e-38,2.3510604481259484e-38],"dodge_timer":-1.0,"double_jumped":false,"handbrake":false,"jump":true,"jump_timer":-1.0,"jumped":true,"o":[-0.979215145111084,0.20260705053806305,-0.009388395585119724,-0.2025977373123169,-0.9792601466178894,-0.001942440983839333,-0.009587232954800129,-0.0,0.9999540448188782],"on_ground":false,"pitch":0.0,"roll":0.0,"steer":0.0,"supersonic":false,"throttle":0.0,"time":927.38671875,"v":[-403.27008056640625,-83.13465881347656,-17.190383911132813],"w":[-0.0002099999983329326,0.0,0.0],"x":[1274.0765380859375,1876.423095703125,240.43157958984375],"yaw":0.0},"ball":{"v":[0.0,0.0,0.0],"w":[0.0,0.0,0.0],"x":[0.0,0.0,92.73999786376953]}}
{"car":{"boost":true,"boost_left":56,"dodge_dir":[2.3512056226468525e-38,2.3510604481259484e-38],"dodge_timer":-1.0,"double_jumped":false,"handbrake":false,"jump":true,"jump_timer":-1.0,"jumped":true,"o":[-0.979215145111084,0.20260705053806305,-0.009388395585119724,-0.2025977373123169,-0.9792601466178894,-0.001942440983839333,-0.009587232954800129,-0.0,0.9999540448188782],"on_ground":false,"pitch":0.0,"roll":0.0,"steer":0.0,"supersonic":false,"throttle":0.0,"time":927.3950805664063,"v":[-411.961181640625,-84.92725372314453,-22.72932243347168],"w":[-0.0002099999983329326,0.0,0.0],"x":[1270.6234130859375,1875.7125244140625,240.24246215820313],"yaw":0.0},"ball":{"v":[0.0,0.0,0.0],"w":[0.0,0.0,0.0],"x":[0.0,0.0,92.73999786376953]}}
{"car":{"boost":true,"boost_left":56,"dodge_dir":[2.3512056226468525e-38,2.3510604481259484e-38],"dodge_timer":-1.0,"double_jumped":false,"handbrake":false,"jump":true,"jump_timer":-1.0,"jumped":true,"o":[-0.979215145111084,0.20260705053806305,-0.009388395585119724,-0.2025977373123169,-0.9792601466178894,-0.001942440983839333,-0.009587232954800129,-0.0,0.9999540448188782],"on_ground":false,"pitch":0.0,"roll":0.0,"steer":0.0,"supersonic":false,"throttle":0.0,"time":927.4034423828125,"v":[-420.6426696777344,-86.71788024902344,-28.262144088745117],"w":[-0.0002099999983329326,0.0,0.0],"x":[1267.0975341796875,1874.9869384765625,240.0029296875],"yaw":0.0},"ball":{"v":[0.0,0.0,0.0],"w":[0.0,0.0,0.0],"x":[0.0,0.0,92.73999786376953]}}
{"car":{"boost":true,"boost_left":55,"dodge_dir":[2.3512056226468525e-38,2.3510604481259484e-38],"dodge_timer":-1.0,"double_jumped":false,"handbrake":false,"jump":true,"jump_timer":-1.0,"jumped":true,"o":[-0.979215145111084,0.20260705053806305,-0.009388395585119724,-0.2025977373123169,-0.9792601466178894,-0.001942440983839333,-0.009587232954800129,-0.0,0.9999540448188782],"on_ground":false,"pitch":0.0,"roll":0.0,"steer":0.0,"supersonic":false,"throttle":0.0,"time":927.411865234375,"v":[-429.27740478515625,-88.49885559082031,-33.765167236328125],"w":[-0.0002099999983329326,0.0,0.0],"x":[1263.515869140625,1874.2509765625,239.7201385498047],"yaw":0.0},"ball":{"v":[0.0,0.0,0.0],"w":[0.0,0.0,0.0],"x":[0.0,0.0,92.73999786376953]}}
{"car":{"boost":true,"boost_left":55,"dodge_dir":[2.3512056226468525e-38,2.3510604481259484e-38],"dodge_timer":-1.0,"double_jumped":false,"handbrake":false,"jump":true,"jump_timer":-1.0,"jumped":true,"o":[-0.979215145111084,0.20260705053806305,-0.009388395585119724,-0.2025977373123169,-0.9792601466178894,-0.001942440983839333,-0.009587232954800129,-0.0,0.9999540448188782],"on_ground":false,"pitch":0.0,"roll":0.0,"steer":0.0,"supersonic":false,"throttle":0.0,"time":927.4202270507813,"v":[-437.978759765625,-90.29357147216797,-39.310638427734375],"w":[-0.0002099999983329326,0.0,0.0],"x":[1259.8359375,1873.4932861328125,239.38893127441406],"yaw":0.0},"ball":{"v":[0.0,0.0,0.0],"w":[0.0,0.0,0.0],"x":[0.0,0.0,92.73999786376953]}}
{"car":{"boost":true,"boost_left":55,"dodge_dir":[2.3512056226468525e-38,2.3510604481259484e-38],"dodge_timer":-1.0,"double_jumped":false,"handbrake":false,"jump":true,"jump_timer":-1.0,"jumped":true,"o":[-0.979215145111084,0.20260705053806305,-0.009388395585119724,-0.2025977373123169,-0.9792601466178894,-0.001942440983839333,-0.009587232954800129,-0.0,0.9999540448188782],"on_ground":false,"pitch":0.0,"roll":0.0,"steer":0.0,"supersonic":false,"throttle":0.0,"time":927.4285888671875,"v":[-446.6090393066406,-92.07362365722656,-44.81080627441406],"w":[-0.0002099999983329326,0.0,0.0],"x":[1256.1156005859375,1872.7275390625,239.01593017578125],"yaw":0.0},"ball":{"v":[0.0,0.0,0.0],"w":[0.0,0.0,0.0],"x":[0.0,0.0,92.73999786376953]}}
{"car":{"boost":true,"boost_left":54,"dodge_dir":[2.3512056226468525e-38,2.3510604481259484e-38],"dodge_timer":-1.0,"double_jumped":false,"handbrake":false,"jump":true,"jump_timer":-1.0,"jumped":true,"o":[-0.979215145111084,0.20260705053806305,-0.009388395585119724,-0.2025977373123169,-0.9792601466178894,-0.001942440983839333,-0.009587232954800129,-0.0,0.9999540448188782],"on_ground":false,"pitch":0.0,"roll":0.0,"steer":0.0,"supersonic":false,"throttle":0.0,"time":927.4370727539063,"v":[-455.2684326171875,-93.85969543457031,-50.32954788208008],"w":[-0.0002099999983329326,0.0,0.0],"x":[1252.3123779296875,1871.943359375,238.595703125],"yaw":0.0},"ball":{"v":[0.0,0.0,0.0],"w":[0.0,0.0,0.0],"x":[0.0,0.0,92.73999786376953]}}
{"car":{"boost":true,"boost_left":54,"dodge_dir":[2.3512056226468525e-38,2.3510604481259484e-38],"dodge_timer":-1.0,"double_jumped":false,"handbrake":false,"jump":true,"jump_timer":-1.0,"jumped":true,"o":[-0.979215145111084,0.20260705053806305,-0.009388395585119724,-0.2025977373123169,-0.9792601466178894,-0.001942440983839333,-0.009587232954800129,-0.0,0.9999540448188782],"on_ground":false,"pitch":0.0,"roll":0.0,"steer":0.0,"supersonic":false,"throttle":0.0,"time":927.4454345703125,"v":[-464.0635986328125,-95.67375946044922,-55.93480682373047],"w":[-0.0002099999983329326,0.0,0.0],"x":[1248.3714599609375,1871.13232421875,238.12339782714844],"yaw":0.0},"ball":{"v":[0.0,0.0,0.0],"w":[0.0,0.0,0.0],"x":[0.0,0.0,92.73999786376953]}}
{"car":{"boost":true,"boost_left":54,"dodge_dir":[2.3512056226468525e-38,2.3510604481259484e-38],"dodge_timer":-1.0,"double_jumped":false,"handbrake":false,"jump":true,"jump_timer":-1.0,"jumped":true,"o":[-0.979215145111084,0.20260705053806305,-0.009388395585119724,-0.2025977373123169,-0.9792601466178894,-0.001942440983839333,-0.009587232954800129,-0.0,0.9999540448188782],"on_ground":false,"pitch":0.0,"roll":0.0,"steer":0.0,"supersonic":false,"throttle":0.0,"time":927.4537963867188,"v":[-472.69384765625,-97.45381164550781,-61.43497848510742],"w":[-0.0002099999983329326,0.0,0.0],"x":[1244.4295654296875,1870.3203125,237.61354064941406],"yaw":0.0},"ball":{"v":[0.0,0.0,0.0],"w":[0.0,0.0,0.0],"x":[0.0,0.0,92.73999786376953]}}
{"car":{"boost":true,"boost_left":54,"dodge_dir":[2.3512056226468525e-38,2.3510604481259484e-38],"dodge_timer":-1.0,"double_jumped":false,"handbrake":false,"jump":true,"jump_timer":-1.0,"jumped":true,"o":[-0.979215145111084,0.20260705053806305,-0.009388395585119724,-0.2025977373123169,-0.9792601466178894,-0.001942440983839333,-0.009587232954800129,-0.0,0.9999540448188782],"on_ground":false,"pitch":0.0,"roll":0.0,"steer":0.0,"supersonic":false,"throttle":0.0,"time":927.462158203125,"v":[-481.3241271972656,-99.2338638305664,-66.93515014648438],"w":[-0.0002099999983329326,0.0,0.0],"x":[1240.4176025390625,1869.494384765625,237.0536651611328],"yaw":0.0},"ball":{"v":[0.0,0.0,0.0],"w":[0.0,0.0,0.0],"x":[0.0,0.0,92.73999786376953]}}
{"car":{"boost":true,"boost_left":53,"dodge_dir":[2.3512056226468525e-38,2.3510604481259484e-38],"dodge_timer":-1.0,"double_jumped":false,"handbrake":false,"jump":true,"jump_timer":-1.0,"jumped":true,"o":[-0.979215145111084,0.20260705053806305,-0.009388395585119724,-0.2025977373123169,-0.9792601466178894,-0.001942440983839333,-0.009587232954800129,-0.0,0.9999540448188782],"on_ground":false,"pitch":0.0,"roll":0.0,"steer":0.0,"supersonic":false,"throttle":0.0,"time":927.4705200195313,"v":[-489.9543762207031,-101.01392364501953,-72.43531799316406],"w":[-0.0002099999983329326,0.0,0.0],"x":[1236.335693359375,1868.65234375,236.44976806640625],"yaw":0.0},"ball":{"v":[0.0,0.0,0.0],"w":[0.0,0.0,0.0],"x":[0.0,0.0,92.73999786376953]}}
